City_ID,City,Country,Max Temp,Current Description,Lat,Lng,Hotel Name
0,Baruun-Urt,MN,74.89,clear sky,46.6806,113.2792,Ахмадын амралт сувилал
1,Saint-Philippe,RE,67.59,light rain,-21.3585,55.7679,"Chambres d'hôte ""La Trinité"""
6,Jamestown,US,74.52,scattered clouds,42.097,-79.2353,Hampton Inn & Suites Jamestown
7,Asyut,EG,80.78,overcast clouds,27.181,31.1837,Florence Hotel Assiut
9,Albany,US,70.66,overcast clouds,42.6001,-73.9662,
11,Westport,US,73.8,mist,41.1415,-73.3579,The Westport Inn
12,Tuscaloosa,US,84.25,clear sky,33.2098,-87.5692,Hampton Inn Tuscaloosa-University
13,Ulaangom,MN,66.54,broken clouds,49.9811,92.0667,Achit Nuur Hotel & Restaurant
15,Rikitea,PF,71.64,clear sky,-23.1203,-134.9692,People ThankYou
16,Caravelas,BR,69.64,overcast clouds,-17.7125,-39.2481,Pousada dos Navegantes
18,Salalah,OM,78.89,overcast clouds,17.0151,54.0924,HAMDAN PLAZA HOTEL SALALAH
21,Mahanoro,MG,68.22,moderate rain,-19.9,48.8,BUNGALOW MAHAMANINA
23,Bargur,IN,75.09,overcast clouds,12.5424,78.3539,Shiva hotel
24,Bonthe,SL,76.6,light rain,7.5264,-12.505,Bonthe Holiday Village
27,Hilo,US,83.93,scattered clouds,19.7297,-155.09,Hilo Hawaiian Hotel
28,Bafra,TR,67.78,clear sky,41.5678,35.9069,Sevgi Otel
29,Sibolga,ID,81.36,overcast clouds,1.7427,98.7792,Hotel Syariah CN Darussalam
30,Victoria,HK,82.38,light rain,22.2855,114.1577,Mini Hotel Central
31,Kalmunai,LK,82.2,scattered clouds,7.4167,81.8167,VS Villa
33,Yaring,TH,82.44,overcast clouds,6.8662,101.3689,สถานที่จัดงานแต่ง SOFEE & DORN
34,Vaini,TO,75.36,light intensity drizzle,-21.2,-175.2,Keleti Beach Resort
37,Khatanga,RU,84.65,clear sky,71.9667,102.5,"Gostinitsa ""Zapolyar'ye"""
39,Manzhouli,CN,68.43,overcast clouds,49.6,117.4333,Angala International Youth Hostel
40,Dashitou,CN,74.25,overcast clouds,43.3067,128.5114,大林宾馆
42,Nanakuli,US,89.55,few clouds,21.3906,-158.1547,Camp Pālehua
44,Muros,ES,64.99,broken clouds,42.7762,-9.0603,Apartment Av. Castelao
45,Katsuura,JP,86.18,scattered clouds,35.1333,140.3,Katsuura Hotel Mikazuki
47,Batagay,RU,67.39,scattered clouds,67.6333,134.6333,Gostinitsa Ki'ileekh
48,Kapaa,US,85.98,light rain,22.0752,-159.319,Sheraton Kauai Coconut Beach Resort
50,Hithadhoo,MV,82.36,overcast clouds,-0.6,73.0833,Scoop Guest House
51,Bathsheba,BB,81.21,few clouds,13.2167,-59.5167,Atlantis Hotel
53,Itaituba,BR,78.06,broken clouds,-4.2761,-55.9836,Hotel Campos
57,Monroe,US,69.4,scattered clouds,43.1501,-77.6831,"Staybridge Suites Rochester University, an IHG Hotel"
58,Georgetown,MY,80.53,few clouds,5.4112,100.3354,Cititel Penang
59,Bikin,RU,73.78,light rain,46.8161,134.26,Azhur
60,Grindavik,IS,61.9,clear sky,63.8424,-22.4338,Northern Light Inn & Max's Restaurant
61,Butaritari,KI,83.7,few clouds,3.0707,172.7902,Isles Sunset Lodge
63,Eyl,SO,77.65,overcast clouds,7.9803,49.8164,Amiin Hotel
66,Auki,SB,86.31,clear sky,-8.7676,160.7034,Auki Motel
67,Nikolskoye,RU,64.29,broken clouds,59.7035,30.7861,Tourist House - Sablino
68,Arona,ES,66.83,few clouds,28.0996,-16.681,Paradise Court
69,Yellowknife,CA,72.12,scattered clouds,62.456,-114.3525,The Explorer Hotel
71,Katherine,AU,86.32,clear sky,-14.4667,132.2667,Pine Tree Motel
74,Bambanglipuro,ID,81.63,broken clouds,-7.95,110.2833,Puri Brata
75,Invermere,CA,86.85,scattered clouds,50.5167,-116.0354,Copper Point Resort
76,Lompoc,US,73.54,overcast clouds,34.6391,-120.4579,"Holiday Inn Express Lompoc, an IHG Hotel"
77,Saskylakh,RU,83.1,few clouds,71.9167,114.0833,
79,Itarema,BR,77.72,scattered clouds,-2.9248,-39.9167,"Sea Lounge! Bar, Club & Restaurant"
81,Sorong,ID,83.98,scattered clouds,-0.8833,131.25,waigo splash hotel
82,Kalianget,ID,83.05,broken clouds,-7.05,113.9333,Pesanggrahan Garam
84,Severo-Kurilsk,RU,62.35,overcast clouds,50.6789,156.125,Kak Doma
85,Avarua,CK,78.85,scattered clouds,-21.2078,-159.775,Paradise Inn
86,Souillac,MU,70.18,light rain,-20.5167,57.5167,Shanti Maurice Resort & Spa
92,Aguimes,ES,69.66,few clouds,27.9054,-15.4461,Hotel Villa de Aguimes
93,Udachnyy,RU,76.51,scattered clouds,66.4167,112.4,Severnoye Siyaniye
94,Carnarvon,AU,66.27,broken clouds,-24.8667,113.6333,Hospitality Carnarvon
95,Mackenzie,CA,77.22,clear sky,55.2999,-123.1698,Hilton Shop
96,Bengkulu,ID,81.5,scattered clouds,-3.8004,102.2655,Grage Hotel Bengkulu
97,Canutama,BR,71.24,scattered clouds,-6.5339,-64.3831,Hotel Jhennifer
98,Banjar,ID,80.46,scattered clouds,-8.19,114.9675,The Hamsa Resort
99,Atuona,PF,77.14,overcast clouds,-9.8,-139.0333,Villa Enata
102,Mahebourg,MU,70.09,light rain,-20.4081,57.7,Shandrani Beachcomber Resort & Spa
104,Dossor,KZ,75.97,scattered clouds,47.5272,52.9811,"Gostinitsa Orpk ""Nauryz"""
106,Najran,SA,83.05,few clouds,17.4924,44.1277,محمد هادي ال فطيح
107,Bethel,US,71.69,overcast clouds,41.3712,-73.414,Courtyard by Marriott Danbury
110,Carmarthen,GB,60.89,broken clouds,51.8555,-4.3054,Ivy Bush Royal Hotel by Compass Hospitality
114,Thompson,CA,73.56,broken clouds,55.7435,-97.8558,Burntwood Hotel
115,Gazanjyk,TM,78.12,clear sky,39.2446,55.5154,Railway motel
116,Athabasca,CA,76.82,broken clouds,54.7169,-113.2854,Athabasca Lodge Motel
117,Rexburg,US,81.91,few clouds,43.826,-111.7897,AmericInn by Wyndham Rexburg BYUI
118,Axim,GH,75.6,few clouds,4.8699,-2.2405,AXIM BEACH RESORT AND SPA
119,Malkangiri,IN,76.01,overcast clouds,18.35,81.9,Girls' Hostel
121,Xingyi,CN,68.41,overcast clouds,24.1877,102.817,
122,Goderich,CA,68.92,clear sky,43.7501,-81.7165,Harmony Inn
124,Kloulklubed,PW,84.7,broken clouds,7.0419,134.2556,Storyboard Beach Resort
125,Marrakesh,MA,82.47,scattered clouds,31.6315,-8.0083,Novotel Marrakech Hivernage
126,Linjiang,CN,89.64,scattered clouds,41.8069,126.9078,格林豪泰
129,Buala,SB,85.17,clear sky,-8.145,159.5921,Maringe Lagoon Lodge
130,Samarai,PG,80.02,scattered clouds,-10.6167,150.6667,Nuli Sapi
131,Tomohon,ID,81.54,few clouds,1.3346,124.8392,Gardenia Country Inn
132,Seydi,TM,79.03,clear sky,39.4816,62.9137,Seydi oteli
133,Aden,YE,82.02,overcast clouds,12.7794,45.0367,Sama Emirate Hotel
135,Faanui,PF,78.08,light rain,-16.4833,-151.75,Bora-Bora Pearl Beach Resort & Spa
136,Camopi,GF,71.22,few clouds,3.1655,-52.3158,
138,Leh,IN,60.91,overcast clouds,34.1667,77.5833,Hotel Ladakh Greens
139,Yalvac,TR,62.62,clear sky,38.2956,31.1778,Yalvac Ogretmenevi
140,Asau,RO,67.75,clear sky,46.4333,26.4,Casa Mika Ciobanus
141,Adrar,MR,86.4,scattered clouds,20.5022,-10.0711,
142,Marzuq,YE,76.8,overcast clouds,14.4,46.4667,
144,Airai,TL,75.51,clear sky,-8.9266,125.4092,Juvinal Martin
145,Matara,LK,80.4,scattered clouds,5.9485,80.5353,Amaloh Boutique Resort
146,Aswan,EG,85.3,clear sky,24.0934,32.907,Nuba Nile
147,Colgong,IN,79.65,overcast clouds,25.2667,87.2167,Hotel Sachin
148,Geraldton,AU,64.13,overcast clouds,-28.7667,114.6,Broadwater Mariner Resort
149,Baykit,RU,62.55,overcast clouds,61.67,96.37,
151,Jumla,NP,63.97,overcast clouds,29.2747,82.1838,"अन्नी घर, जुम्ला - Anni Ghar"
152,Ahipara,NZ,62.28,broken clouds,-35.1667,173.1667,Ahipara Holiday Park
153,Ahuimanu,US,89.31,broken clouds,21.4447,-157.8378,Paradise Bay Resort
154,Yangambi,CD,70.97,broken clouds,0.8102,24.4336,
155,Minot,US,82.62,smoke,48.2325,-101.2963,Noble Inn
156,Sambava,MG,67.84,light rain,-14.2667,50.1667,Melrose
157,Mongoumba,CF,73.94,overcast clouds,3.6415,18.5936,
158,Pucallpa,PE,64.44,broken clouds,-8.3791,-74.5539,Hospedaje Komby
159,Pisco,PE,63.01,overcast clouds,-13.7,-76.2167,Hotel San Isidro Oficial
160,Surt,LY,80.28,clear sky,31.2089,16.5887,الهادي ابوشعاله سرت
161,Namibe,AO,63.7,clear sky,-15.1961,12.1522,Hotel Chik Chik Namibe
162,Torbay,CA,60.28,clear sky,47.6666,-52.7314,Gallows Cove
163,Carutapera,BR,75.47,scattered clouds,-1.195,-46.02,Lidera
165,Cayenne,GF,77.09,clear sky,4.9333,-52.3333,Hôtel Le Dronmi
166,Palmer,US,71.2,overcast clouds,42.1584,-72.3287,Wedgewood Motel
167,Marakkanam,IN,84.61,overcast clouds,12.2,79.95,OYO 73765 Ocean Breeze Guest House
168,Kununurra,AU,84.18,clear sky,-15.7667,128.7333,Hotel Kununurra
169,Elat,IL,81.68,clear sky,29.5581,34.9482,Club Hotel Eilat
171,Harper,LR,75.52,overcast clouds,4.375,-7.7169,Screensaver
173,Kysyl-Syr,RU,74.68,broken clouds,63.8986,122.7617,
174,Slavutych,UA,63.34,few clouds,51.5196,30.7343,Славутич отель
176,Kilindoni,TZ,75.6,clear sky,-7.9139,39.6668,Bustani B&B
177,Jackson,US,87.67,few clouds,42.4165,-122.8345,Agate Village Apartments
178,Tadine,NC,75.25,clear sky,-21.55,167.8833,
180,Alihe,CN,79.0,clear sky,50.5667,123.7167,Alihe Forestry Hotel
181,Wagar,SD,81.43,overcast clouds,16.1525,36.2032,
183,Ambovombe,MG,63.37,clear sky,-25.1667,46.0833,RELAHARA
184,Gainesville,US,79.09,broken clouds,29.6516,-82.3248,"Holiday Inn Gainesville-University Ctr, an IHG Hotel"
185,Huehuetan,MX,73.74,overcast clouds,15.0167,-92.3667,Plenque
188,Zhigansk,RU,68.4,clear sky,66.7697,123.3711,Gostinichnyy Kompleks Aylgy
189,Naze,JP,85.12,overcast clouds,28.3667,129.4833,奄美ポートタワーホテル
190,Gamba,GA,73.81,overcast clouds,-2.65,10.0,
191,Esso,RU,66.43,overcast clouds,55.9333,158.7,Paramushir Tur
193,Aklavik,CA,67.03,overcast clouds,68.2191,-135.0107,Aklavik Inn
194,Korostyshiv,UA,62.91,clear sky,50.3172,29.0563,Эдем
197,Lagoa,PT,69.64,clear sky,39.05,-27.9833,Casa Das Faias
198,Conde,BR,72.86,few clouds,-7.2597,-34.9075,Pousada Beija Flor
199,Talara,PE,66.49,overcast clouds,-4.5772,-81.2719,Hostal Oro Negro
200,Ambilobe,MG,62.53,clear sky,-13.2,49.05,Hôtel & Restaurant DIANA Ambilobe
203,Bundaberg,AU,71.89,scattered clouds,-24.85,152.35,Takalvan Motel
205,Kavieng,PG,83.84,light rain,-2.5744,150.7967,Nusa Island Retreat
206,Bowen,AU,75.42,clear sky,-20.0167,148.2333,Castle Motor Lodge Motel
210,Huntington,US,80.31,mist,38.4193,-82.4452,Ramada Limited Huntington
213,Bayan,CN,79.0,overcast clouds,46.0833,127.4,Wanhao Inn
214,Aubenas,FR,68.47,moderate rain,44.6201,4.3899,ibis Aubenas
219,Seeboden,AT,65.53,scattered clouds,46.8219,13.495,Familiengasthof St. Wolfgang
220,Lisala,CD,73.38,overcast clouds,2.15,21.5167,
221,Lodja,CD,68.23,scattered clouds,-3.4833,23.4333,
223,Jalu,LY,78.76,clear sky,29.0331,21.5482,صاحبة الفخامة
224,Bonavista,CA,61.12,few clouds,48.6499,-53.1147,Abbott's Bed & Breakfast
225,Uhlove,UA,74.14,clear sky,44.8215,33.6045,Tavryda
226,Mongo,TD,70.66,moderate rain,12.1844,18.693,Résidences du Programme FIDA
227,Morondava,MG,69.42,scattered clouds,-20.2833,44.2833,La Case Bambou
228,Ler,SS,71.29,overcast clouds,8.3018,30.1418,
229,Vao,NC,71.35,clear sky,-22.6667,167.4833,Hotel Kou-Bugny
231,Biak,ID,82.6,broken clouds,-0.9131,122.8766,Penginapan Kim
233,Avera,US,88.72,clear sky,33.194,-82.5271,
234,Kushima,JP,89.11,broken clouds,31.4583,131.2333,Hanaoka
237,Antalaha,MG,68.34,light rain,-14.9003,50.2788,Hotel Vitasoa
238,Aloleng,PH,82.67,overcast clouds,16.1307,119.7824,Steve Walden and Emma Sison-Walden Residence
239,Petropavlovsk-Kamchatskiy,RU,66.79,broken clouds,53.0452,158.6483,The Hotel Petropavlovsky
241,Gujan-Mestras,FR,66.67,overcast clouds,44.6333,-1.0667,Hôtel La Baie Des Landes
242,Kavaratti,IN,82.33,overcast clouds,10.5669,72.642,Hotels in Lakshadweep Islands
243,Yerbogachen,RU,73.83,clear sky,61.2767,108.0108,
244,Yulara,AU,69.64,clear sky,-25.2406,130.9889,Desert Gardens Hotel - Ayers Rock Resort
246,Touros,BR,76.1,scattered clouds,-5.1989,-35.4608,INN NEW HORIZON
247,Korhogo,CI,68.25,overcast clouds,9.45,-5.6333,Hôtel Tchinbota
248,Padang,ID,78.85,overcast clouds,-0.9492,100.3543,Mercure Padang
249,Acarau,BR,77.47,scattered clouds,-2.8856,-40.12,castelo pizzaria
250,Shingu,JP,88.79,clear sky,33.7333,135.9833,Shingu UI Hotel
252,Carbonia,IT,77.0,clear sky,39.1672,8.5222,Lu 'Hotel
253,Atar,MR,83.21,broken clouds,20.5169,-13.0499,Oumou Elghoura
254,Chirongui,YT,75.13,light rain,-12.9319,45.1483,La Villa Mahatsara
255,Eureka,US,60.58,scattered clouds,40.8021,-124.1637,Eureka Inn Trademark By Wyndham
256,Hamilton,US,82.35,broken clouds,39.1834,-84.5333,Six Acres Bed & Breakfast
257,Houma,US,82.4,overcast clouds,29.5958,-90.7195,Courtyard by Marriott Houma
258,Hasaki,JP,84.6,few clouds,35.7333,140.8333,Hotel Sunrise Choshi
260,Ranong,TH,73.33,overcast clouds,9.9658,98.6348,Tinidee Hotel@Ranong
261,Komsomolskiy,UZ,79.52,overcast clouds,40.4272,71.7189,Ikathouse
262,Verkhoyansk,RU,67.03,few clouds,67.5447,133.385,
263,Qeshm,IR,87.67,broken clouds,26.9581,56.2719,Qeshm Kavan Hotel
264,Ketchikan,US,66.67,overcast clouds,55.3422,-131.6461,Snows Cove Lodge
266,Charleston,US,83.1,clear sky,32.7766,-79.9309,The Mills House Wyndham Grand Hotel
267,Tommot,RU,67.75,clear sky,58.9564,126.2925,Gostinitsa Tommot
268,Fairbanks,US,71.1,overcast clouds,64.8378,-147.7164,Westmark Fairbanks Hotel & Conference Center
269,Allapalli,IN,77.72,overcast clouds,19.4167,80.0667,Hotel IK Residency
270,Royan,FR,66.18,clear sky,45.6285,-1.0281,Hôtel Cordouan Thalassothérapie et Spa - Royan
271,Pirovskoye,RU,65.66,overcast clouds,57.6267,92.2658,
273,Lorengau,PG,85.35,scattered clouds,-2.0226,147.2712,Lorengau Harbourside Hotel
276,Nemuro,JP,77.43,overcast clouds,43.3236,145.575,Hotel Nemuro Kaiyoutei
277,Arimalam,IN,82.65,overcast clouds,10.2667,78.9,Government Ladies Hostel
278,Kanniyakumari,IN,79.61,overcast clouds,8.0833,77.5667,Sparsa
279,Bougouni,ML,70.12,light rain,11.417,-7.479,Non Stop
280,Pishin,PK,79.84,clear sky,30.5803,66.9961,City Hotel Pishin
281,Pailon,BO,61.7,scattered clouds,-17.65,-62.75,Alojamiento pailon
282,Sirjan,IR,75.11,few clouds,29.452,55.6814,MAPNA Building
285,Madeji,PK,86.02,scattered clouds,27.7544,68.4526,Maki Madani hotal Madeji
287,Neenah,US,77.14,scattered clouds,44.1858,-88.4626,Best Western Premier Bridgewood Resort Hotel
289,Uromi,NG,67.32,broken clouds,6.7,6.3333,Royal Motel
291,Acapulco,MX,81.37,overcast clouds,16.8634,-99.8901,HS Hotsson Smart Acapulco
293,Tessalit,ML,85.84,scattered clouds,20.1986,1.0114,
295,Jambi,ID,82.24,broken clouds,-1.6,103.6167,ASTON Jambi Hotel & Conference Center
297,Ixtapa,MX,85.23,broken clouds,20.7,-105.2,Hotel Plaza Providencia
298,Huilong,CN,88.03,light rain,31.8111,121.655,Hilton Garden Inn Qidong
299,Varkkallai,IN,80.38,overcast clouds,8.7341,76.7067,SPOT ON 72723 Pathanjali Ayurveda Yoga Centre( Dreams Beach Resort)
301,Buraydah,SA,86.45,scattered clouds,26.326,43.975,فندق راحة السلام
302,Constantine,DZ,78.21,few clouds,36.365,6.6147,Grand Hotel Cirta
303,Bukama,CD,67.14,clear sky,-9.2,25.85,
304,Kirakira,SB,84.04,few clouds,-10.4544,161.9205,SanBiz Lodge
305,Kommunar,RU,63.93,scattered clouds,59.6206,30.39,Guest House Izhora
307,Sukumo,JP,88.5,clear sky,32.9333,132.7333,Sukumojo
310,Karratha,AU,74.01,clear sky,-20.7377,116.8463,ibis Styles Karratha
311,Vorobyevka,RU,69.22,overcast clouds,50.6451,40.9245,
314,Phalaborwa,ZA,61.88,clear sky,-23.943,31.1411,Bothabelo Bed and Breakfast
316,Fortuna,US,60.33,clear sky,40.5982,-124.1573,Super 8 by Wyndham Fortuna
317,Tahoua,NE,82.04,overcast clouds,14.8888,5.2692,Bungalows Guesthouse
318,Asfi,MA,69.17,scattered clouds,32.2994,-9.2372,Hôtel Abda
319,Issoudun,FR,60.49,overcast clouds,47.0,1.8333,
320,Xining,CN,69.4,clear sky,36.6167,101.7667,Super Leisure Hotel
321,Lyubar,UA,61.79,clear sky,49.9204,27.7592,Hotel Agro-technological Kompaniyiyi
322,Natal,BR,79.02,few clouds,-5.795,-35.2094,Villa Park Hotel | Natal
323,Siocon,PH,86.11,overcast clouds,7.7061,122.1353,ABS Hotel
324,Buchanan,LR,75.92,few clouds,5.8808,-10.0467,Kamaneahn Hotel Inc
325,Tezu,IN,76.3,light rain,27.9167,96.1667,Circuit House
328,Goundam,ML,88.92,broken clouds,16.4145,-3.6708,
329,Kokopo,PG,85.82,clear sky,-4.352,152.2633,Kokopo Beach Bungalow Resort
330,Mitsamiouli,KM,75.47,light rain,-11.3847,43.2844,Foyer ADM
332,Rafai,CF,66.94,scattered clouds,4.95,23.9167,
333,Vangaindrano,MG,65.46,broken clouds,-23.35,47.6,Hotel Fanilo
334,Isangel,VU,75.92,scattered clouds,-19.55,169.2667,Tanna Lodge
335,Sitka,US,69.69,few clouds,57.0531,-135.33,Westmark Sitka
336,Ugoofaaru,MV,82.35,scattered clouds,5.6667,73.0,Ungoofaaru Inn
337,Santarem,BR,75.33,clear sky,-2.4431,-54.7083,Ecotur Lodge
338,Pasni,PK,81.61,overcast clouds,25.2631,63.471,Kashmiri Hotal
339,Pimenteiras,BR,81.97,overcast clouds,-6.2453,-41.4192,Hotel Central
342,Seinajoki,FI,60.55,broken clouds,62.7945,22.8282,"Original Sokos Hotel Vaakuna, Seinäjoki"
345,Farkhor,TJ,83.28,clear sky,37.4922,69.4036,Khonai Abdulkhayrov
346,Otane,NZ,62.38,clear sky,-39.8833,176.6333,Ludlow Farmstay
347,Griffith,US,75.15,clear sky,41.5284,-87.4237,"Motel 6 Hammond, IN - Chicago Area"
348,Wasilla,US,62.29,overcast clouds,61.5814,-149.4394,Alaska's Select Inn Wasilla
349,Aksehir,TR,63.43,clear sky,38.3575,31.4164,GRAND HOTEL AKŞEHİR
350,Dali,CN,66.52,overcast clouds,25.7,100.1833,Dali Travelling With Hostel
351,Sechura,PE,68.27,broken clouds,-5.5569,-80.8222,Hospedaje Costa Bella
353,Pangkalanbuun,ID,85.69,overcast clouds,-2.6833,111.6167,Grand Kecubung Hotel
354,Yumen,CN,85.21,clear sky,40.2833,97.2,
355,Talbahat,IN,76.24,overcast clouds,25.05,78.4333,PWD Guest House
356,Flinders,AU,64.06,clear sky,-34.5833,150.8552,Shellharbour Resort & Conference Centre
357,Sapele,NG,73.36,broken clouds,5.8941,5.6767,Movig Hotel & Suites
359,Wuwei,CN,86.97,clear sky,37.9281,102.6414,Thank Inn Chain Hotel gansu wuwei liangzhou district xiguan middle road
360,Bentiu,SS,70.99,light rain,9.2333,29.8333,Mandela hôtel
361,Nabire,ID,84.38,overcast clouds,-3.3667,135.4833,Hotel Nusantara Nabire
362,Azpeitia,ES,69.71,overcast clouds,43.1825,-2.2669,Arrupe
363,Palafrugell,ES,73.35,clear sky,41.9174,3.1631,Hotel La Torre
366,Hirara,JP,89.87,broken clouds,24.8,125.2833,Hotel Atoll Emerald Miyakojima
369,Kahului,US,86.02,scattered clouds,20.8947,-156.47,Maui Seaside Hotel
370,Broome,US,70.18,broken clouds,42.2506,-75.833,Chenango Valley State Park
371,Saint-Joseph,RE,66.58,light rain,-21.3667,55.6167,"""Plantation Bed and Breakfast"
372,Labuhan,ID,83.7,scattered clouds,-6.8844,112.2051,PT PPI Lamongan Tambak C
373,Khandyga,RU,69.96,scattered clouds,62.6667,135.6,Apel'sin
374,Inhambane,MZ,64.06,clear sky,-23.865,35.3833,Oceano
378,Acajutla,SV,79.52,overcast clouds,13.5928,-89.8275,asi es
379,Wellington,NZ,61.83,few clouds,-41.2866,174.7756,CityLife Wellington
380,Katete,UG,61.0,scattered clouds,-0.7818,29.7544,
381,Anloga,GH,77.22,few clouds,5.7947,0.8973,Pin Drop Hotel
382,Angoche,MZ,69.87,clear sky,-16.2325,39.9086,Guest House HESADA
383,Balkanabat,TM,79.5,clear sky,39.5108,54.3671,Nebitchi Hotel
385,Luanda,AO,71.6,scattered clouds,-8.8368,13.2343,LANDU MARINEZA LUFUANDU TONI
386,Deyang,CN,88.9,overcast clouds,31.1302,104.382,Milletholly Resort Hotel
387,Smirnykh,RU,81.64,moderate rain,49.75,142.8333,Tsentral'naya
388,Kokoda,PG,87.8,broken clouds,-8.8785,147.7407,Daito Guest House
389,Saint-Francois,FR,63.18,clear sky,46.4154,3.9054,Manoir Du Bonheur
390,Camacha,PT,67.42,few clouds,33.0833,-16.3333,Hotel Porto Santo & Spa
392,Pelham,US,83.52,clear sky,33.2857,-86.81,Birmingham South RV Park
394,Villena,ES,70.92,clear sky,38.6373,-0.8657,Hotel Restaurante Salvadora
395,Krasnoye-Na-Volge,RU,63.9,overcast clouds,57.5125,41.2419,Almaz Hotel
396,Kulhudhuffushi,MV,82.35,broken clouds,6.6221,73.07,Hondaafushi Island Resort
397,Kochi,IN,76.98,overcast clouds,9.9399,76.2602,Hotel Abad
398,Qixingtai,CN,86.4,light rain,30.4135,111.8874,Sunny Hotel
400,Tocopilla,CL,63.27,scattered clouds,-22.092,-70.1979,Hotel Galvarino
401,Gat,IL,79.39,clear sky,31.61,34.7642,OlusHome
402,Breves,BR,72.54,scattered clouds,-1.6822,-50.4803,Hotel e Restaurante Grill
405,Palembang,ID,82.49,few clouds,-2.9167,104.7458,ASTON Palembang Hotel & Conference Center
407,Semirom,IR,62.94,clear sky,31.4167,51.5667,Motel Dena
408,Wewak,PG,84.02,scattered clouds,-3.5534,143.6268,In Wewak Boutique Hotel
409,Touba,CI,66.25,scattered clouds,8.2833,-7.6833,Hotel de L'Amitié Vraie
410,Shenjiamen,CN,82.18,overcast clouds,29.9576,122.298,Jinjiang Inn Zhoushan Putuo Shenjiamen
411,Miri,MY,80.74,scattered clouds,4.4148,114.0089,"Mega Hotel, Miri"
412,Balancan,MX,80.4,overcast clouds,17.8,-91.5333,Hotel Balam Ku
413,Muzaffarabad,PK,79.48,few clouds,34.37,73.4711,Pearl Continental Muzaffarabad
414,Panaba,MX,81.12,overcast clouds,21.2833,-88.2667,Posada rosario
415,Katobu,ID,84.85,scattered clouds,-4.9408,122.5276,La Ode Husein
416,Jurm,AF,73.0,clear sky,36.8648,70.8342,
419,Gopalur,IN,75.78,overcast clouds,16.6167,77.8,Dhaba- Motel
420,Teguise,ES,66.42,clear sky,29.0605,-13.564,B&B La Casona de Nazaret
421,Amapa,BR,71.08,scattered clouds,1.0,-52.0,
422,Matamoros,MX,82.35,broken clouds,25.5333,-103.25,Quinta Belem
423,Marawi,PH,83.97,broken clouds,7.9986,124.2928,Derogongan Residence
424,Nioro,GM,76.33,overcast clouds,13.35,-15.75,
426,Laurel,US,79.45,scattered clouds,39.0993,-76.8483,Days Inn & Suites by Wyndham Laurel Near Fort Meade
428,Chirilagua,SV,75.31,overcast clouds,13.2203,-88.1386,Hogar De Espera Materno
429,Grimshaw,CA,80.22,few clouds,56.1834,-117.6027,Pomeroy Inn & Suites Grimshaw
430,Sanchor,IN,83.52,broken clouds,24.7553,71.7722,Hotel Amar Palace & AC Restaurant
432,Lata,PT,61.81,scattered clouds,40.1629,-8.3327,Casa Maquia
433,Taltal,CL,62.04,clear sky,-25.4,-70.4833,Residencial Karime
435,Multai,IN,70.88,overcast clouds,21.7667,78.25,HOTEL SAI KRIPA MULTAI
436,Dingle,PH,87.48,broken clouds,10.9995,122.6711,SEGAYA PROPERTY
437,Pyay,MM,82.47,overcast clouds,18.8167,95.2167,Shwe Pyi Thar
439,Parainen,FI,63.9,scattered clouds,60.3067,22.301,Hotell Kalkstrand
441,Saint-Leu,RE,67.06,scattered clouds,-21.15,55.2833,La Caz Oceane
442,Tautira,PF,78.82,scattered clouds,-17.7333,-149.15,Pension Oaoa
445,Mahajanga,MG,71.62,few clouds,-15.7167,46.3167,Restaurant Greedy Coco Lodge Majunga
446,Tambura,SS,66.88,overcast clouds,5.6,27.4667,Rikito Lodge
447,Siguiri,GN,71.22,moderate rain,11.6667,-9.5,
448,Jalapa,MX,62.69,broken clouds,19.5333,-96.9167,Hotel Mision Xalapa Plaza de las Convenciones
449,Muroto,JP,84.24,clear sky,33.2833,134.15,Oota Ryokan
451,Hobyo,SO,76.15,overcast clouds,5.3505,48.5268,Halane Hotel and Restaurent
453,Tecolutla,MX,79.79,overcast clouds,20.4833,-97.0167,Hotel Plaza Marsol
455,Cayeli,TR,71.6,scattered clouds,41.0923,40.7292,Grand Cavusoglu Hotel
456,Contamana,PE,63.82,broken clouds,-7.3333,-75.0167,Shiringal Touristic Park
457,Nador,MA,77.07,few clouds,35.174,-2.9287,Hôtel La Giralda
458,Dandong,CN,85.24,clear sky,40.1292,124.3947,Yiranju Farmstay
459,Dobroye,RU,62.71,clear sky,52.8678,39.8109,Zarech'ye
460,Mayo,US,80.22,mist,38.8876,-76.5119,Resorts Resource Group International
461,Ushtobe,KZ,66.6,overcast clouds,45.2514,77.9838,"Gostinitsa ""Diyar"""
462,Kouroussa,GN,70.79,overcast clouds,10.65,-9.8833,Hotel Paillote
464,Jvari,GE,62.85,clear sky,42.7169,42.052,Savanna House
466,Jarvenpaa,FI,62.76,few clouds,60.4737,25.0899,Härmän Rati Oy
467,Barcelos,PT,62.28,clear sky,41.5388,-8.6151,Hotel Do Terço
469,Zatoka,UA,68.54,clear sky,46.0725,30.4654,"База отдыха ""Солнечная"""
470,Wanlaweyn,SO,72.01,overcast clouds,2.6185,44.8938,GAASHAAN HOME
471,Grand-Santi,GF,72.82,overcast clouds,4.25,-54.3833,Hotel La Villa Couacou
473,Xuddur,SO,67.8,overcast clouds,4.1213,43.8894,Banjanay Hotel
474,Yaan,NG,71.17,overcast clouds,7.3833,8.5667,
475,Aleksandrovka,UA,74.14,broken clouds,46.8383,32.7612,
477,Tura,IN,75.06,overcast clouds,25.5198,90.2201,Hotel RIKMAN Continental
478,Svetlyy,RU,60.85,clear sky,54.675,20.1347,"Gostinitsa-Kafe, Alena"
479,Soyo,AO,71.58,few clouds,-6.1349,12.3689,Hotel Mpampa
481,Plock,PL,66.16,overcast clouds,52.5468,19.7064,Herman
483,Hambantota,LK,77.34,few clouds,6.1241,81.1185,Bungalow 63
484,Pandan,PH,88.25,overcast clouds,14.0453,124.1694,Bonifacio Lodge
485,Kawalu,ID,77.47,broken clouds,-7.3817,108.2082,KOSAN UNGU UNSIK
486,Monrovia,LR,76.5,few clouds,6.3005,-10.7969,Sunset Inn
487,Gladstone,AU,74.79,clear sky,-23.85,151.25,Highpoint International
488,Havelock,US,82.38,clear sky,34.8791,-76.9013,Sherwood Motel
489,Teya,RU,61.74,broken clouds,60.3778,92.6267,
490,Semenyih,MY,84.18,overcast clouds,2.9516,101.843,Diamond City Bungalow 13 pax by BeeStay near Broga
491,Mitu,CO,70.34,broken clouds,1.1983,-70.1733,
493,Saint-Georges,GD,80.28,few clouds,12.0564,-61.7485,Radisson Grenada Beach Resort
494,Kieta,PG,85.17,scattered clouds,-6.2167,155.6333,Uruna Bay Retreat
495,Zhoucheng,CN,78.89,scattered clouds,35.9122,116.3117,Yingbin Restaurant
496,Lasa,IT,61.68,clear sky,46.6166,10.7002,Pension Feldgärtenhof
497,Alofi,NU,78.69,broken clouds,-19.0595,-169.9187,Taloa Heights
498,Erenhot,CN,80.71,clear sky,43.6475,111.9767,Erenhot Rurouni Youth Hostel
500,Champerico,GT,80.35,overcast clouds,14.3,-91.9167,"Hotel y restaurante ""El Diamante"""
502,Riohacha,CO,79.14,overcast clouds,11.5444,-72.9072,Hotel Taroa
507,Dubasari,MD,65.28,clear sky,47.2631,29.1608,Днестровский Сад
509,Waw,SS,69.85,moderate rain,7.7029,27.9953,Universal Gab Hotel
510,Roald,NO,61.0,overcast clouds,62.5833,6.1333,Flem Cabins
511,Kampot,KH,77.05,overcast clouds,10.6167,104.1833,Two Moons Hotel
512,Angouleme,FR,63.55,overcast clouds,45.65,0.15,Mercure Angoulême - Hôtel de France
513,Zemio,CF,67.19,broken clouds,5.0314,25.1361,OCHA Office
514,Northam,GB,61.02,light rain,51.0333,-4.2167,Durrant House Hotel
515,Shuangyang,CN,78.76,light rain,43.5242,125.6736,Boutique Chatelet
516,Malchevskaya,RU,68.74,broken clouds,49.0552,40.3625,
517,Hohhot,CN,77.29,clear sky,40.8106,111.6522,Sheraton Hohhot Hotel
518,Waspan,NI,74.91,few clouds,14.7419,-83.9717,Hostal casa de la rose
519,Bhavnagar,IN,81.34,overcast clouds,21.7667,72.15,Hotel Relax Inn
520,Rongcheng,CN,87.55,clear sky,30.634,117.8517,Shell Shandong Liaocheng Development District South Huangshan Road Hotel
521,Tibati,CM,66.61,overcast clouds,6.4667,12.6333,Tibati Hotel
522,Bhattiprolu,IN,82.56,overcast clouds,16.1,80.7833,Kondalu Hotel
524,Kutum,SD,79.14,overcast clouds,14.2,24.6667,Dibbo areaمنطقة دبو
525,Berdigestyakh,RU,71.35,clear sky,62.0989,126.6992,
526,Pooler,US,85.23,few clouds,32.1155,-81.2471,Embassy Suites by Hilton Savannah Airport
527,Trincomalee,LK,82.06,broken clouds,8.5711,81.2335,Welcombe Hotel
528,Izoplit,RU,61.97,light rain,56.6256,36.222,
529,Mukhen,RU,79.7,overcast clouds,48.1,136.1,
530,Belmonte,BR,73.9,broken clouds,-15.8631,-38.8828,Pousada Monte Carmelo O Pão
531,Dryden,CA,66.49,clear sky,49.7833,-92.7503,"Holiday Inn Express Dryden, an IHG Hotel"
532,Challans,FR,66.11,broken clouds,46.8436,-1.8749,Citotel Le Challans
534,Paka,MY,82.33,few clouds,4.6374,103.4368,RUMBIA RESORT VILLA
535,Cap-Aux-Meules,CA,64.45,few clouds,47.3821,-61.8597,Auberge Madeli
536,Vanavara,RU,76.12,clear sky,60.34,102.2797,
537,Dauphin,CA,78.94,clear sky,51.1494,-100.0502,Canway Inn & Suites
538,Manta,EC,74.98,broken clouds,-0.95,-80.7333,Balandra Hotel
539,Batagay-Alyta,RU,65.37,clear sky,67.8006,130.4114,
542,Manaus,BR,82.89,scattered clouds,-3.1019,-60.025,Manaus Hotéis Millennium
543,Chunskiy,RU,61.95,overcast clouds,56.0815,99.6342,Odisseya
544,Shelburne,CA,66.6,clear sky,44.0787,-80.2041,The Retreat at the Farm
545,Bandarban,BD,80.58,overcast clouds,22.1965,92.2262,Hotel Plaza
546,Oktyabrskiy,RU,65.12,overcast clouds,54.4815,53.471,Уязы-Тау гостиница
547,Okhotsk,RU,62.65,scattered clouds,59.3833,143.3,
548,Yarmouth,US,71.98,overcast clouds,41.7057,-70.2286,Blue Rock Resort
550,Milford,US,73.65,mist,41.2223,-73.0565,Homewood Suites by Hilton Stratford
551,Port-Cartier,CA,61.02,overcast clouds,50.0334,-66.8654,Le Q'Artier
552,Karakol,KG,60.75,overcast clouds,42.4907,78.3936,"Gostinitsa ""Al'tamira"""
554,Bojonegoro,ID,84.74,broken clouds,-7.1502,111.8817,Dewarna Hotel & Convention
555,Awbari,LY,79.34,clear sky,26.5921,12.7805,فندق أوباري
558,Mecca,SA,86.45,overcast clouds,21.4267,39.8261,"Makkah Clock Royal Tower, A Fairmont Hotel"
